[{"business":"Francis Motuzick Jr","category":"Fruit","farmer_id":"3402","item":"Peaches","l":"0","location_1":{"type":"Point","coordinates":[-73.09627264999966,41.77989387000048]},"location_1_city":"Harwinton","location_1_location":"16 Bogue Rd","location_1_state":"CT","zipcode":"06791"}
,{"business":"Morning Song Farms","category":"Fruit","farm_name":"Morning Song Farms","farmer_id":"16352","item":"Peaches","l":"18","location_1":{"type":"Point","coordinates":[-73.22418539499967,41.7874849100005]},"location_1_city":"Litchfield","location_1_location":"403 Beach Street","location_1_state":"CT","phone1":"860-361-6216","zipcode":"06759"}
,{"business":"Field View Farm","category":"Fruit","farm_name":"Field View Farm","farmer_id":"6640","item":"Peaches","l":"15","location_1":{"type":"Point","coordinates":[-73.04627981099964,41.31108858500045]},"location_1_city":"Orange","location_1_location":"707 Derby Turnpike","location_1_state":"CT","phone1":"203-795-0571","zipcode":"06477"}
,{"business":"Hidden Valley Farm","category":"Fruit","farm_name":"Hidden Valley Farm","farmer_id":"3098","item":"Peaches","l":"18","location_1":{"type":"Point","coordinates":[-73.32397286199966,41.67132318200049]},"location_1_city":"Washington","location_1_location":"218 Bee Brook Rd","location_1_state":"CT","zipcode":"06793"}
,{"business":"Rogers Orchards Inc.","category":"Fruit","farm_name":"Rogers Orchards Inc.","farmer_id":"8212","item":"Peaches","l":"20","location_1":{"type":"Point","coordinates":[-72.83839229999967,41.63682982400047]},"location_1_city":"Southington","location_1_location":"336 Long Bottom Road","location_1_state":"CT","phone1":"860-229-4240","website":"http://www.rogersorchards.com","zipcode":"06489"}
,{"business":"High Spring Orchard","category":"Fruit","farm_name":"High Spring Orchard","farmer_id":"7029","item":"Peaches","l":"19","location_1":{"type":"Point","coordinates":[-71.99031546499964,41.96712491900047]},"location_1_city":"Woodstock","location_1_location":"47 Dividend Road","location_1_state":"CT","phone1":"860-993-4732","zipcode":"06281"}
,{"business":"BUSSA ORCHARDS","category":"Fruit","farm_name":"BUSSA ORCHARDS","farmer_id":"6076","item":"Peaches","l":"14","location_1":{"type":"Point","coordinates":[-72.56237214799967,41.649448074000475]},"location_1_city":"South Glastonbury","location_1_location":"101 Clark Hill Road","location_1_state":"CT","phone1":"860-633-4906","zipcode":"06073-3507"}
,{"business":"Dagata's Fine Family Farm","category":"Fruit","farm_name":"Dagata's Fine Family Farm","farmer_id":"16267","item":"Peaches","l":"25","location_1":{"type":"Point","coordinates":[-72.68867721599963,42.02935769400045]},"location_1_city":"West Suffield","location_1_location":"1448 North Grand Street","location_1_state":"CT","phone1":"860-668-6906","website":"http://www.dagatas.com","zipcode":"06093"}
,{"business":"Lapsley Orchard","category":"Fruit","farm_name":"Lapsley Orchard","farmer_id":"7346","item":"Peaches","l":"15","location_1":{"type":"Point","coordinates":[-71.95867326999962,41.82901967200047]},"location_1_city":"Pomfret Center","location_1_location":"403 Orchard Hill Road (Rte. 169)","location_1_state":"CT","phone1":"860-928-9186","zipcode":"06259"}
,{"business":"Gotta's Farm","category":"Fruit","farm_name":"Gotta's Farm","farmer_id":"6830","item":"Peaches","l":"12","location_1":{"type":"Point","coordinates":[-72.59892886699964,41.615659216000495]},"location_1_city":"Portland","location_1_location":"661 Glastonbury Turnpike, Rte. 17","location_1_state":"CT","phone1":"860-342-1844","website":"http://www.gottasfarm.com","zipcode":"06480"}
,{"business":"Caccavale's \"Organic\" Fruits and Vegetables","category":"Fruit","farm_name":"Caccavale's \"Organic\" Fruits and Vegetables","farmer_id":"18297","item":"Peaches","l":"43","location_1":{"type":"Point","coordinates":[-73.28854181599962,41.38958856000045]},"location_1_city":"Newtown","location_1_location":"116 South Main Street","location_1_state":"CT","phone1":"203-426-6846","zipcode":"06470"}
,{"business":"Hurst Farm, Inc.","category":"Fruit","farm_name":"Hurst Farm, Inc.","farmer_id":"7147","item":"Peaches","l":"16","location_1":{"type":"Point","coordinates":[-72.41368012699962,41.71825658300048]},"location_1_city":"Andover","location_1_location":"746 East St","location_1_state":"CT","phone1":"860-646-6536","website":"http://www.hurstfarms.com","zipcode":"06232"}
,{"business":"Dogwood Farm","category":"Fruit","farm_name":"Dogwood Farm","farmer_id":"1325","item":"Peaches","l":"12","location_1":{"type":"Point","coordinates":[-72.55953544099964,41.30074933600048]},"location_1_city":"Clinton","location_1_location":"120 Airline Rd","location_1_state":"CT","phone1":"860-669-3078","zipcode":"06413"}
,{"business":"Laurel Lane Farm","category":"Fruit","farm_name":"Laurel Lane Farm","farmer_id":"12663","item":"Peaches","l":"16","location_1":{"type":"Point","coordinates":[-72.20272452499967,41.89683092700045]},"location_1_city":"Ashford","location_1_location":"459 Zaicek Road","location_1_state":"CT","phone1":"860-429-9995","zipcode":"06278"}
,{"business":"Land of Nod Farm & Winery","category":"Fruit","farm_name":"Land of Nod Farm & Winery","farmer_id":"7340","item":"Peaches","l":"25","location_1":{"type":"Point","coordinates":[-73.30311145799965,42.01059811800047]},"location_1_city":"East Canaan","location_1_location":"99 Lower Road","location_1_state":"CT","phone1":"860-824-5225","website":"http://www.landofnodwinery.com","zipcode":"06024"}
,{"business":"Lowry Family Farm","category":"Fruit","farm_name":"Lowry Family Farm","farmer_id":"6048","item":"Peaches","l":"17","location_1":{"type":"Point","coordinates":[-72.59450036799967,41.27972922300046]},"location_1_city":"Madison","location_1_location":"Boston Post Road","location_1_state":"CT","phone1":"203-457-6933","zipcode":"06443"}
,{"business":"SCOTT WILLIAM & Susan DUFFORD","category":"Fruit","farmer_id":"1346","item":"Peaches","l":"0","location_1":{"type":"Point","coordinates":[-72.57988913699967,41.654715155000474]},"location_1_city":"South Glastonbury","location_1_location":"349 MATSON HILL RD","location_1_state":"CT","phone1":"860-633-9993","zipcode":"06073-3412"}
,{"business":"Horse Listeners Orchard","category":"Fruit","farm_name":"Horse Listeners Orchard","farmer_id":"7127","item":"Peaches","l":"23","location_1":{"type":"Point","coordinates":[-72.14747618799964,41.85070942900046]},"location_1_city":"Ashford","location_1_location":"317 Bebbington Road","location_1_state":"CT","phone1":"860-429-5336","website":"http://www.horselistenersorchard.com","zipcode":"06278"}
,{"business":"Esposito/Teveris","category":"Fruit","farm_name":"Esposito/Teveris","farmer_id":"1450","item":"Peaches","l":"16","location_1":{"type":"Point","coordinates":[-72.56839397399966,41.651697329000456]},"location_1_city":"South Glastonbury","location_1_location":"685 MATSON HILL RD","location_1_state":"CT","phone1":"860-659-1538","zipcode":"06073-3522"}
,{"business":"Buell's Orchard","category":"Fruit","farm_name":"Buell's Orchard","farmer_id":"6043","item":"Peaches","l":"15","location_1":{"type":"Point","coordinates":[-72.10551923699967,41.91981091600047]},"location_1_city":"Eastford","location_1_location":"108 Crystal Pond Road","location_1_state":"CT","phone1":"860-974-1150","website":"http://www.buellsorchard.com","zipcode":"06242"}
,{"business":"Pamphile Gagne Farm","category":"Fruit","farm_name":"Pamphile Gagne Farm","farmer_id":"1630","item":"Peaches","l":"19","location_1":{"type":"Point","coordinates":[-73.03250381199967,41.9300950650005]},"location_1_city":"Barkhamsted","location_1_location":"173 Old North Rd","location_1_state":"CT","phone1":"860-379-2588","zipcode":"06063"}
,{"business":"Bluebird Hill Farm","category":"Fruit","farm_name":"Bluebird Hill Farm","farmer_id":"5955","item":"Peaches","l":"18","location_1":{"type":"Point","coordinates":[-72.24061819299965,41.6502166460005]},"location_1_city":"Lebanon","location_1_location":"480 Trumbull Hwy","location_1_state":"CT","phone1":"860-642-4663","suite":"Rte. 87","zipcode":"06249"}
,{"business":"Indian Valley Farm","category":"Fruit","farm_name":"Indian Valley Farm","farmer_id":"891","item":"Peaches","l":"18","location_1":{"type":"Point","coordinates":[-73.40283156499964,41.53850198400045]},"location_1_city":"Bridgewater","location_1_location":"100 Lillinonah Lake Dr","location_1_state":"CT","phone1":"860-354-6489","zipcode":"06752"}
,{"business":"Burdick Family Farm LLC","category":"Fruit","farm_name":"Burdick Family Farm LLC","farmer_id":"616","item":"Peaches","l":"23","location_1":{"type":"Point","coordinates":[-72.05971005899966,41.81593907700045]},"location_1_city":"Hampton","location_1_location":"230 KENYON RD","location_1_state":"CT","phone1":"860-455-9669","zipcode":"06247"}
,{"business":"Lyman Farm, Inc.","category":"Fruit","farm_name":"Lyman Farm, Inc.","farmer_id":"7476","item":"Peaches","l":"16","location_1":{"type":"Point","coordinates":[-72.72135890999965,41.515638744000455]},"location_1_city":"Middlefield","location_1_location":"Rt 147 &amp; 157","location_1_state":"CT","phone1":"860-349-1793","website":"http://www.lymanorchards.com","zipcode":"06455"}
,{"business":"Marymount Crafts","category":"Fruit","farm_name":"Marymount Crafts","farmer_id":"9514","item":"Peaches","l":"16","location_1":{"type":"Point","coordinates":[-72.28024109899962,41.752396271000464]},"location_1_city":"Coventry","location_1_location":"275 South Street Extension","location_1_state":"CT","phone1":"860-742-5660","zipcode":"06238"}
,{"business":"Bell Nurseries","category":"Fruit","farm_name":"Bell Nurseries","farmer_id":"5849","item":"Peaches","l":"14","location_1":{"type":"Point","coordinates":[-72.88200244899963,41.3827328590005]},"location_1_city":"North Haven","location_1_location":"1301 Hartford Tpke","location_1_state":"CT","phone1":"203-281-0164","zipcode":"06473"}
,{"business":"Fifth Season Farm","category":"Fruit","farm_name":"Fifth Season Farm","farmer_id":"5284","item":"Peaches","l":"17","location_1":{"type":"Point","coordinates":[-73.11658628599963,41.64077369600045]},"location_1_city":"Watertown","location_1_location":"1051 Northfield Rd","location_1_state":"CT","phone1":"860-274-7963","zipcode":"06795"}
,{"business":"Chaplin Farms LLC","category":"Fruit","farm_name":"Chaplin Farms LLC","farmer_id":"16365","item":"Peaches","l":"17","location_1":{"type":"Point","coordinates":[-72.10350323399967,41.76752415800047]},"location_1_city":"Chaplin","location_1_location":"392 Hampton Road","location_1_state":"CT","phone1":"860-455-1100","website":"http://www.chaplinfarms.com","zipcode":"06235"}
,{"business":"Joseph Preli Farm & Vineyard","category":"Fruit","farm_name":"Joseph Preli Farm & Vineyard","farmer_id":"15336","item":"Peaches","l":"28","location_1":{"type":"Point","coordinates":[-72.59373841199965,41.66411316500046]},"location_1_city":"South Glastonbury","location_1_location":"235 Hopewell Road","location_1_state":"CT","phone1":"860-633-7333","zipcode":"06073-2409"}
,{"business":"Molodich Farms","category":"Fruit","farm_name":"Molodich Farms","farmer_id":"7681","item":"Peaches","l":"14","location_1":{"type":"Point","coordinates":[-71.84485548099963,41.64690729300048]},"location_1_city":"Moosup","location_1_location":"36 Cedar Swamp Road","location_1_state":"CT","phone1":"860-564-1117","zipcode":"06354"}
,{"business":"Smoke and Mirrors Farm","category":"Fruit","farm_name":"Smoke and Mirrors Farm","farmer_id":"9878","item":"Peaches","l":"22","location_1":{"type":"Point","coordinates":[-73.28371050499965,41.44197777000045]},"location_1_city":"Sandy Hook","location_1_location":"120 Walnut Tree Hill Road","location_1_state":"CT","zipcode":"06482"}
,{"business":"Country Farm II","category":"Fruit","farm_name":"Country Farm II","farmer_id":"16676","item":"Peaches","l":"15","location_1":{"type":"Point","coordinates":[-72.79931355399964,41.36386194100049]},"location_1_city":"Northford","location_1_location":"415 Forest Road","location_1_state":"CT","phone1":"203-484-0472","zipcode":"06472"}
,{"business":"Brown Farm","category":"Fruit","farm_name":"Brown Farm","farmer_id":"6027","item":"Peaches","l":"10","location_1":{"type":"Point","coordinates":[-72.08710279699966,41.663203626000495]},"location_1_city":"Scotland","location_1_location":"537 Devotion Road","location_1_state":"CT","phone1":"860-423-0533","zipcode":"06264"}
,{"business":"Wladyslaw & Maria Chowaniec","category":"Fruit","farmer_id":"866","item":"Peaches","l":"0","location_1":{"type":"Point","coordinates":[-72.99818011099967,41.75826380800049]},"location_1_city":"Burlington","location_1_location":"143 Johnnycake Mountain Rd","location_1_state":"CT","phone1":"860-675-3074","zipcode":"06013"}
,{"business":"Blue Hills Orchard, Inc.","category":"Fruit","farm_name":"Blue Hills Orchard, Inc.","farmer_id":"5934","item":"Peaches","l":"24","location_1":{"type":"Point","coordinates":[-72.86646012399967,41.449318064000465]},"location_1_city":"Wallingford","location_1_location":"141 Blue Hill Road","location_1_state":"CT","phone1":"203-269-3189","website":"http://www.bluehillsorchard.com","zipcode":"06492"}
,{"business":"Winding Drive","category":"Fruit","farm_name":"Winding Drive","farmer_id":"17758","item":"Peaches","l":"13","location_1":{"type":"Point","coordinates":[-73.18832591999967,41.74476388900047]},"location_1_city":"Litchfield","location_1_location":"394 Weekeepeemee Rd","location_1_state":"CT","phone1":"203-263-6961"}
,{"business":"Middlebrook Farm & Orchard","category":"Fruit","farm_name":"Middlebrook Farm & Orchard","farmer_id":"7637","item":"Peaches","l":"26","location_1":{"type":"Point","coordinates":[-73.28965154199966,41.390304468000465]},"location_1_city":"Newtown","location_1_location":"112-116 South Main Street","location_1_state":"CT","phone1":"203-426-8226","zipcode":"06470-2323"}
,{"business":"Jericho","category":"Fruit","farm_name":"Jericho","farmer_id":"2487","item":"Peaches","l":"7","location_1":{"type":"Point","coordinates":[-72.00335760599967,41.83318862800047]},"location_1_city":"POMFRET CTR","location_1_location":"74 SETH KIMBALL RD","location_1_state":"CT","zipcode":"06259"}
,{"business":"Winterbrook Farm","category":"Fruit","farm_name":"Winterbrook Farm","farmer_id":"9083","item":"Peaches","l":"16","location_1":{"type":"Point","coordinates":[-72.22926963299966,42.02051096700046]},"location_1_city":"Stafford Springs","location_1_location":"116 Beffa Road","location_1_state":"CT","phone1":"860-684-2124","zipcode":"06077"}
,{"business":"Belltown Hill Orchards, LLC","category":"Fruit","farm_name":"Belltown Hill Orchards, LLC","farmer_id":"5856","item":"Peaches","l":"27","location_1":{"type":"Point","coordinates":[-72.57531457799968,41.6508976450005]},"location_1_city":"South Glastonbury","location_1_location":"483 Matson Hill Road","location_1_state":"CT","phone1":"860-633-2789","website":"http://www.belltownhillorchards.com","zipcode":"06073"}
,{"business":"Cobblerock Ridge Angora Goat & Poultry Farm","category":"Fruit","farm_name":"Cobblerock Ridge Angora Goat & Poultry Farm","farmer_id":"6239","item":"Peaches","l":"43","location_1":{"type":"Point","coordinates":[-72.35467960799963,41.9917620650005]},"location_1_city":"Stafford Springs","location_1_location":"276 Diamond Ledge Road","location_1_state":"CT","phone1":"860-684-2557","website":"http://www.cobblerockridgefarm.com","zipcode":"06076"}
,{"business":"Orchard Hill Farm","category":"Fruit","farm_name":"Orchard Hill Farm","farmer_id":"15663","item":"Peaches","l":"17","location_1":{"type":"Point","coordinates":[-72.51963171199964,41.823765267000454]},"location_1_city":"South Windsor","location_1_location":"425 Avery Street","location_1_state":"CT","phone1":"860-648-1633","zipcode":"06074"}
,{"business":"18th Century Purity Farms at the Hall Homestead","category":"Fruit","farm_name":"18th Century Purity Farms at the Hall Homestead","farmer_id":"5618","item":"Peaches","l":"47","location_1":{"type":"Point","coordinates":[-71.89237903999964,41.6809076720005]},"location_1_city":"Plainfield","location_1_location":"156 Plainfield Pike Rd","location_1_state":"CT","phone1":"860-564-8733","zipcode":"06374"}
,{"business":"Drazen Orchards LLC","category":"Fruit","farm_name":"Drazen Orchards LLC","farmer_id":"6465","item":"Peaches","l":"19","location_1":{"type":"Point","coordinates":[-72.89369690399963,41.49353967200045]},"location_1_city":"Cheshire","location_1_location":"251 Wallingford Road","location_1_state":"CT","phone1":"203-272-7985","website":"http://www.drazenorchards.com","zipcode":"06410"}
,{"business":"YALE FARM","category":"Fruit","farm_name":"YALE FARM","farmer_id":"17010","item":"Peaches","l":"9","location_1":{"type":"Point","coordinates":[-72.92150571299965,41.32002846300048]},"location_1_city":"New Haven","location_1_location":"345 Edwards Street","location_1_state":"CT","phone1":"203-432-2084","zipcode":"06511"}
,{"business":"Starberry Farm","category":"Fruit","farm_name":"Starberry Farm","farmer_id":"8500","item":"Peaches","l":"14","location_1":{"type":"Point","coordinates":[-73.32457602299962,41.646836186000485]},"location_1_city":"Washington Depot","location_1_location":"81 Kielwasser Road","location_1_state":"CT","phone1":"860-868-2863","zipcode":"06794"}
,{"business":"Ferrari Farms","category":"Fruit","farm_name":"Ferrari Farms","farmer_id":"6632","item":"Peaches","l":"13","location_1":{"type":"Point","coordinates":[-72.60476690099966,41.65894979000046]},"location_1_city":"South Glastonbury","location_1_location":"675 Main Street","location_1_state":"CT","phone1":"860-633-7353","zipcode":"06073-3121"}
,{"business":"PETRA PRELI","category":"Fruit","farmer_id":"3929","item":"Peaches","l":"0","location_1":{"type":"Point","coordinates":[-72.56454419999966,41.65213750000049]},"location_1_city":"South Glastonbury","location_1_location":"785 MATSON HILL RD","location_1_state":"CT","phone1":"860-633-2207","zipcode":"06073-3523"}
,{"business":"West Meadow Farm","category":"Fruit","farm_name":"West Meadow Farm","farmer_id":"3963","item":"Peaches","l":"16","location_1":{"type":"Point","coordinates":[-72.57474419799962,41.847362847000454]},"location_1_city":"South Windsor","location_1_location":"201 West Rd","location_1_state":"CT","phone1":"860-610-0001","zipcode":"06074-1928"}
,{"business":"Firetto Farm - Trapper's Den","category":"Fruit","farm_name":"Firetto Farm - Trapper's Den","farmer_id":"1535","item":"Peaches","l":"28","location_1":{"type":"Point","coordinates":[-72.41579729199964,41.88917684900048]},"location_1_city":"Tolland","location_1_location":"160 Hurlbut Road","location_1_state":"CT","phone1":"860-872-1333","zipcode":"06084"}
,{"business":"LOST ACRES ORCHARD & FARM STORE","category":"Fruit","farm_name":"LOST ACRES ORCHARD & FARM STORE","farmer_id":"7461","item":"Peaches","l":"31","location_1":{"type":"Point","coordinates":[-72.86368923399965,42.0084967840005]},"location_1_city":"North Granby","location_1_location":"130 Lost Acres Road","location_1_state":"CT","phone1":"860-653-6600","website":"http://www.lostacres.com","zipcode":"06060"}
,{"business":"Karabin Farms","category":"Fruit","farm_name":"Karabin Farms","farmer_id":"7243","item":"Peaches","l":"13","location_1":{"type":"Point","coordinates":[-72.82920259099967,41.61609643000048]},"location_1_city":"Southington","location_1_location":"894 Andrews Street","location_1_state":"CT","phone1":"860-620-0194","website":"http://www.karabinfarms.com","zipcode":"06489"}
,{"category":"Fruit","farmer_id":"15260","item":"Peaches","location_1":{"type":"Point","coordinates":[-71.86814770599966,41.758510396000474]},"location_1_city":"Moosup","location_1_location":"701 Squaw Rock Road","location_1_state":"CT","phone1":"860-564-8733","zipcode":"06354-1724"}
,{"business":"Murkowicz Farm","category":"Fruit","farm_name":"Murkowicz Farm","farmer_id":"3427","item":"Peaches","l":"14","location_1":{"type":"Point","coordinates":[-72.64791409399965,41.920018824000465]},"location_1_city":"Windsor Locks","location_1_location":"94 South Elm St","location_1_state":"CT","phone1":"860-623-3412","zipcode":"06096"}
,{"business":"Palazzi Orchard","category":"Fruit","farm_name":"Palazzi Orchard","farmer_id":"7906","item":"Peaches","l":"15","location_1":{"type":"Point","coordinates":[-71.82077029199962,41.87240859800045]},"location_1_city":"Dayville","location_1_location":"1393 North Road","location_1_state":"CT","phone1":"860-774-4363","zipcode":"06243"}
,{"business":"Stone's Throw Farm, LLC","category":"Fruit","farm_name":"Stone's Throw Farm, LLC","farmer_id":"8543","item":"Peaches","l":"23","location_1":{"type":"Point","coordinates":[-73.38122393599963,41.348019217000456]},"location_1_city":"Bethel","location_1_location":"129 Putnam Park Road","location_1_state":"CT","phone1":"203-798-0151","zipcode":"06801-0076"}
,{"business":"Still River Mill, LLC","category":"Fruit","farm_name":"Still River Mill, LLC","farmer_id":"8522","item":"Peaches","l":"21","location_1":{"type":"Point","coordinates":[-72.07929965699964,41.90424605600049]},"location_1_city":"Eastford","location_1_location":"210 Eastford Road","location_1_state":"CT","phone1":"860-974-9918","website":"http://www.stillrivermill.com","zipcode":"06242-0397"}
,{"business":"Rare Ark","category":"Fruit","farm_name":"Rare Ark","farmer_id":"15775","item":"Peaches","l":"8","location_1":{"type":"Point","coordinates":[-72.16065197599966,41.659045404000494]},"location_1_city":"Lebanon","location_1_location":"59 Williams Crossing Road","location_1_state":"CT","phone1":"860-423-4995","zipcode":"06249"}
,{"business":"Gustafson Brothers","category":"Fruit","farm_name":"Gustafson Brothers","farmer_id":"6894","item":"Peaches","l":"18","location_1":{"type":"Point","coordinates":[-73.13331511299964,41.649328238000464]},"location_1_city":"Watertown","location_1_location":"936 Linkfield Rd","location_1_state":"CT","phone1":"860-274-8214","zipcode":"06795"}
,{"business":"CHICOINE FAMILY FARM LLC","category":"Fruit","farm_name":"CHICOINE FAMILY FARM LLC","farmer_id":"14715","item":"Peaches","l":"24","location_1":{"type":"Point","coordinates":[-72.61701045699965,41.92498400000045]},"location_1_city":"East Windsor","location_1_location":"24 Holcomb Terrace","location_1_state":"CT","phone1":"860-292-1742","website":"http://www.chichfarm.com","zipcode":"06088"}
,{"business":"Tara Farm","category":"Fruit","farm_name":"Tara Farm","farmer_id":"8639","item":"Peaches","l":"9","location_1":{"type":"Point","coordinates":[-73.12158605599967,41.60582802400046]},"location_1_city":"Watertown","location_1_location":"860 Guersry Town Road","location_1_state":"CT","phone1":"860-978-7800","zipcode":"06795"}
,{"business":"Sunny Acres Farm","category":"Fruit","farm_name":"Sunny Acres Farm","farmer_id":"16540","item":"Peaches","l":"16","location_1":{"type":"Point","coordinates":[-72.12847285799967,41.67444527800046]},"location_1_city":"Windham","location_1_location":"22 Myers Road","location_1_state":"CT","phone1":"860-423-6415","zipcode":"06280"}
,{"business":"Mountain View Farm","category":"Fruit","farm_name":"Mountain View Farm","farmer_id":"7707","item":"Peaches","l":"18","location_1":{"type":"Point","coordinates":[-73.48587979099966,41.757261247000486]},"location_1_city":"Kent","location_1_location":"67 Fuller Mountain Road","location_1_state":"CT","phone1":"860-927-1856","website":"http://www.mountainviewfarmkent.com","zipcode":"06757-1202"}
,{"business":"Ellsworth Hill Orchard and Berry Farm LLC.","category":"Fruit","farm_name":"Ellsworth Hill Orchard and Berry Farm LLC.","farmer_id":"6550","item":"Peaches","l":"42","location_1":{"type":"Point","coordinates":[-73.42607629699967,41.83039463500046]},"location_1_city":"Sharon","location_1_location":"461 Cornwall Bridge Road (Rte. 4)","location_1_state":"CT","phone1":"860-364-0025","website":"http://www.ellsworthfarm.com","zipcode":"06069"}
,{"business":"Back Forty LLC","category":"Fruit","farm_name":"Back Forty LLC","farmer_id":"17687","item":"Peaches","l":"14","location_1":{"type":"Point","coordinates":[-73.33990207499966,41.61871764200049]},"location_1_city":"Washington","location_1_location":"153 Lower Church Hill Road","location_1_state":"CT","phone1":"860-868-7897","website":"http://www.thebackforty.us","zipcode":"06794"}
,{"business":"East Village Farm, LLC","category":"Fruit","farm_name":"East Village Farm, LLC","farmer_id":"3301","item":"Peaches","l":"22","location_1":{"type":"Point","coordinates":[-73.14752735699966,41.34239262500046]},"location_1_city":"Shelton","location_1_location":"126 East Village Rd","location_1_state":"CT","website":"http://www.eastvillagefarm.com","zipcode":"06484"}
,{"business":"Zakaraki Estate","category":"Fruit","farm_name":"Zakaraki Estate","farmer_id":"16922","item":"Peaches","l":"15","location_1":{"type":"Point","coordinates":[-71.86902689599964,41.763126437000494]},"location_1_city":"Moosup","location_1_location":"765 Squaw Rock Road","location_1_state":"CT","phone1":"860-564-0557","zipcode":"06354"}
,{"business":"Blackman Farm","category":"Fruit","farm_name":"Blackman Farm","farmer_id":"417","item":"Peaches","l":"13","location_1":{"type":"Point","coordinates":[-73.39635985899963,41.46218648600046]},"location_1_city":"Brookfield","location_1_state":"CT","phone1":"203-775-9063","zipcode":"06804"}
,{"business":"Bywood Farm","category":"Fruit","farm_name":"Bywood Farm","farmer_id":"6088","item":"Peaches","l":"11","location_1":{"type":"Point","coordinates":[-73.25578308899964,42.03226658700049]},"location_1_city":"Canaan","location_1_location":"25 Hollow Brook Lane","location_1_state":"CT","phone1":"860-824-5971","zipcode":"06018"}
,{"business":"Berruti's Harvest House","category":"Fruit","farm_name":"Berruti's Harvest House","farmer_id":"5881","item":"Peaches","l":"23","location_1":{"type":"Point","coordinates":[-72.59929125799965,41.673534222000455]},"location_1_city":"South Glastonbury","location_1_location":"1098 Main Street","location_1_state":"CT","phone1":"860-657-8158","zipcode":"06073"}
,{"business":"Highland Thistle Farm","category":"Fruit","farm_name":"Highland Thistle Farm","farmer_id":"7034","item":"Peaches","l":"21","location_1":{"type":"Point","coordinates":[-71.99107597699964,41.726114537000456]},"location_1_city":"Canterbury","location_1_location":"289 North Society Rd","location_1_state":"CT","phone1":"860-546-3960","zipcode":"06331"}
,{"business":"Lake View Farm Market","category":"Fruit","farm_name":"Lake View Farm Market","farmer_id":"16921","item":"Peaches","l":"21","location_1":{"type":"Point","coordinates":[-71.82385535499964,41.63068186300046]},"location_1_city":"Voluntown","location_1_location":"Williams Road","location_1_state":"CT","phone1":"860-608-1147","zipcode":"06351"}
,{"business":"Janet Tanner & Peter Jr Poskas","category":"Fruit","farmer_id":"3904","item":"Peaches","l":"0","location_1":{"type":"Point","coordinates":[-73.26630005299967,41.61025248800047]},"location_1_city":"Washington","location_1_location":"365 Nettleton Hollow Rd","location_1_state":"CT","phone1":"860-868-0690","zipcode":"06793"}
,{"business":"Deercrest Farm","category":"Fruit","farm_name":"Deercrest Farm","farmer_id":"6403","item":"Peaches","l":"14","location_1":{"type":"Point","coordinates":[-72.46910184899963,41.70250373800047]},"location_1_city":"Glastonbury","location_1_location":"3499 HEBRON AVE","location_1_state":"CT","phone1":"860-633-4407","website":"http://www.deercrest.net","zipcode":"06033-2810"}
,{"business":"Q-P Farm Market","category":"Fruit","farm_name":"Q-P Farm Market","farmer_id":"8056","item":"Peaches","l":"15","location_1":{"type":"Point","coordinates":[-72.59116672499965,41.56529361300045]},"location_1_city":"Portland","location_1_location":"1339 Portland Cobalt Rd., Rte. 66","location_1_state":"CT","phone1":"860-342-5030","website":"http://www.gottasfarm.com","zipcode":"06480"}
,{"business":"Lemke Valley Farm","category":"Fruit","farm_name":"Lemke Valley Farm","farmer_id":"7387","item":"Peaches","l":"17","location_1":{"type":"Point","coordinates":[-72.61708940299962,41.66283528500048]},"location_1_city":"South Glastonbury","location_1_location":"241 Tryon Street","location_1_state":"CT","phone1":"860-633-0794","zipcode":"06073"}
,{"business":"Forsyth Farm","category":"Fruit","farm_name":"Forsyth Farm","farmer_id":"5031","item":"Peaches","l":"12","location_1":{"type":"Point","coordinates":[-72.24890140599967,41.47842343800045]},"location_1_city":"Salem","location_1_location":"160 Forsythe Rd","location_1_state":"CT","phone1":"860-857-3702","zipcode":"06415"}
,{"business":"BARBERRY HILL FARM","category":"Fruit","farm_name":"BARBERRY HILL FARM","farmer_id":"9394","item":"Peaches","l":"18","location_1":{"type":"Point","coordinates":[-72.61830160299962,41.27837760900047]},"location_1_city":"Madison","location_1_location":"353 Boston Post Road","location_1_state":"CT","phone1":"203-245-2373","zipcode":"06443"}
,{"business":"Olde Murphy Farm","category":"Fruit","farm_name":"Olde Murphy Farm","farmer_id":"17032","item":"Peaches","l":"16","location_1":{"type":"Point","coordinates":[-72.27119975199963,41.67665690500047]},"location_1_city":"Columbia","location_1_location":"563 Rte. 87","location_1_state":"CT","phone1":"860-228-1303","zipcode":"06237"}
,{"business":"Turtle Ledge Farm","category":"Fruit","farm_name":"Turtle Ledge Farm","farmer_id":"8803","item":"Peaches","l":"17","location_1":{"type":"Point","coordinates":[-72.03881996499967,41.748564038000495]},"location_1_city":"Hampton","location_1_location":"460 Windham Road","location_1_state":"CT","phone1":"860-455-1411","zipcode":"06247"}
,{"category":"Fruit","farmer_id":"16722","item":"Peaches","location_1":{"type":"Point","coordinates":[-72.03638786699963,41.76654268800047]},"location_1_city":"Hampton","location_1_location":"108 Drain Street","location_1_state":"CT","phone1":"860-455-1351","zipcode":"06247"}
,{"business":"CONNECTICUT VALLEY ORCHARD","category":"Fruit","farm_name":"CONNECTICUT VALLEY ORCHARD","farmer_id":"6272","item":"Peaches","l":"26","location_1":{"type":"Point","coordinates":[-72.44900918399964,41.36862074700048]},"location_1_city":"Deep River","location_1_location":"274 Kelsey Hill Rd","location_1_state":"CT","phone1":"860-526-9633","website":"http://www.scottsfarms.com","zipcode":"06417"}
,{"business":"Kathy's Gardens","category":"Fruit","farm_name":"Kathy's Gardens","farmer_id":"17653","item":"Peaches","l":"15","location_1":{"type":"Point","coordinates":[-72.24373857199964,41.53256752100049]},"location_1_city":"Salem","location_1_location":"80 Buckly Road","location_1_state":"CT","phone1":"860-235-9731","zipcode":"06420"}
,{"business":"Birdseye & Tanner Brooks Farm, LLC","category":"Fruit","farm_name":"Birdseye & Tanner Brooks Farm, LLC","farmer_id":"16719","item":"Peaches","l":"34","location_1":{"type":"Point","coordinates":[-73.32041587899965,41.834714929000484]},"location_1_city":"West Cornwall","location_1_location":"92 Great Hollow Rd","location_1_state":"CT","phone1":"860-672-6906","zipcode":"06796"}
,{"business":"Willow Brook Farms","category":"Fruit","farm_name":"Willow Brook Farms","farmer_id":"16387","item":"Peaches","l":"18","location_1":{"type":"Point","coordinates":[-73.45284633299963,41.68195256100046]},"location_1_city":"South Kent","location_1_location":"41 Geer Mountain Rd","location_1_state":"CT","phone1":"860-927-5209","website":"http://www.willowbrookfarms.us","zipcode":"06785"}
,{"business":"Woolly Acres LLC","category":"Fruit","farm_name":"Woolly Acres LLC","farmer_id":"18244","item":"Peaches","l":"16","location_1":{"type":"Point","coordinates":[-72.51391000399963,41.680422602000476]},"location_1_city":"Glastonbury","location_1_location":"581 Thompson Street","location_1_state":"CT","phone1":"860-430-5464","zipcode":"06033"}
,{"business":"Woodland Farm","category":"Fruit","farm_name":"Woodland Farm","farmer_id":"9105","item":"Peaches","l":"13","location_1":{"type":"Point","coordinates":[-72.56310203599963,41.65529407600047]},"location_1_city":"South Glastonbury","location_1_location":"615 Woodland Street","location_1_state":"CT","phone1":"860-430-9942","website":"http://www.woodlandfarmllc.com","zipcode":"06073"}
,{"business":"March Farm","category":"Fruit","farm_name":"March Farm","farmer_id":"7549","item":"Peaches","l":"10","location_1":{"type":"Point","coordinates":[-73.21432233799965,41.64869032000047]},"location_1_city":"Bethlehem","location_1_location":"160 Munger Lane","location_1_state":"CT","phone1":"203-266-7721","website":"http://www.marchfarms.com","zipcode":"06751"}
,{"business":"SCOTT'S ORCHARD & NURSERY","category":"Fruit","farm_name":"SCOTT'S ORCHARD & NURSERY","farmer_id":"8320","item":"Peaches","l":"25","location_1":{"type":"Point","coordinates":[-72.56006305799963,41.68711478200049]},"location_1_city":"Glastonbury","location_1_location":"1838 New London Turnpike","location_1_state":"CT","phone1":"860-633-8681","website":"http://www.scottsorchardandnursery.com","zipcode":"06033"}
,{"business":"Avery's Tree Farm","category":"Fruit","farm_name":"Avery's Tree Farm","farmer_id":"5760","item":"Peaches","l":"17","location_1":{"type":"Point","coordinates":[-72.15782098299962,41.64812640700046]},"location_1_city":"North Franklin","location_1_location":"28 Ward Lane","location_1_state":"CT","phone1":"860642-6844","zipcode":"06254"}
,{"business":"Belinsky Family Farm","category":"Fruit","farm_name":"Belinsky Family Farm","farmer_id":"5846","item":"Peaches","l":"20","location_1":{"type":"Point","coordinates":[-73.12417237199963,41.39971586500047]},"location_1_city":"Oxford","location_1_location":"124 Moose Hill Road","location_1_state":"CT","phone1":"203-888-0322","website":"http://www.belinskyfarm.com","zipcode":"06478"}
,{"business":"Frankies Fruit and Vegetables","category":"Fruit","farm_name":"Frankies Fruit and Vegetables","farmer_id":"16848","item":"Peaches","l":"29","location_1":{"type":"Point","coordinates":[-72.86041214299962,41.41967909600049]},"location_1_city":"North Haven","location_1_location":"1940 Hartford Turnpike","location_1_state":"CT","phone1":"203-376-0407","website":"http://www.geocites.com/frankiesfarm","zipcode":"0647."}
,{"business":"Bishop's Orchards Farm Market & Winery","category":"Fruit","farm_name":"Bishop's Orchards Farm Market & Winery","farmer_id":"5910","item":"Peaches","l":"38","location_1":{"type":"Point","coordinates":[-72.69486151199965,41.28936346400047]},"location_1_city":"Guilford","location_1_location":"1355 Boston Post Road, US Rte. 1, I-95 Exit 57","location_1_state":"CT","phone1":"203-458-PICK (7425-","website":"http://www.bishopsorchards.com","zipcode":"06437"}
,{"business":"Verizzi's Apple Farm","category":"Fruit","farm_name":"Verizzi's Apple Farm","farmer_id":"8895","item":"Peaches","l":"20","location_1":{"type":"Point","coordinates":[-72.33575486899963,41.67996443900046]},"location_1_city":"Columbia","location_1_location":"402 Route 66","location_1_state":"CT","phone1":"860-228-3661","zipcode":"06237"}
,{"business":"Bush Meadow Farm, LLC","category":"Fruit","farm_name":"Bush Meadow Farm, LLC","farmer_id":"6070","item":"Peaches","l":"21","location_1":{"type":"Point","coordinates":[-72.19258195299966,41.97143366000046]},"location_1_city":"Union","location_1_location":"738 Buckley Highway","location_1_state":"CT","phone1":"860-684-3089","website":"http://www.bushmeadowfarm.com","zipcode":"06076"}
,{"business":"Quackin' Grass Nursery","category":"Fruit","farm_name":"Quackin' Grass Nursery","farmer_id":"8057","item":"Peaches","l":"22","location_1":{"type":"Point","coordinates":[-71.97001267599967,41.78411483500048]},"location_1_city":"Brooklyn","location_1_location":"16 Laurel Hill Rd","location_1_state":"CT","phone1":"860-779-1732","website":"http://www.quackingrassnursery.com","zipcode":"06234"}
,{"business":"Plasko's Farm, LLC","category":"Fruit","farm_name":"Plasko's Farm, LLC","farmer_id":"9816","item":"Peaches","l":"18","location_1":{"type":"Point","coordinates":[-73.19987244799967,41.267880566000485]},"location_1_city":"Trumbull","location_1_location":"670 Daniels Farm Road","location_1_state":"CT","phone1":"203-268-2716","website":"http://www.plaskosfarm.com","zipcode":"06611"}
,{"business":"Collins Farm","category":"Fruit","farm_name":"Collins Farm","farmer_id":"6254","item":"Peaches","l":"12","location_1":{"type":"Point","coordinates":[-72.19273348199965,41.495477132000474]},"location_1_city":"Oakdale","location_1_location":"1403 Route 163","location_1_state":"CT","phone1":"860-848-7529","zipcode":"06370"}
,{"business":"Dorothy Mayo","category":"Fruit","farmer_id":"3115","item":"Peaches","l":"0","location_1":{"type":"Point","coordinates":[-72.69347762099966,42.00746779600047]},"location_1_city":"West Suffield","location_1_location":"606 North Grand St","location_1_state":"CT","phone1":"860-668-1539","zipcode":"06093"}
,{"business":"Tracy Griswold","category":"Fruit","farmer_id":"1866","item":"Peaches","l":"0","location_1":{"type":"Point","coordinates":[-73.17208706199966,41.740098196000474]},"location_1_city":"Litchfield","location_1_location":"44 Chestnut Hill","location_1_state":"CT","phone1":"860-567-8051","zipcode":"06759"}
,{"business":"Sweet Wind Farm","category":"Fruit","farm_name":"Sweet Wind Farm","farmer_id":"8617","item":"Peaches","l":"15","location_1":{"type":"Point","coordinates":[-72.91587377299965,41.975822680000476]},"location_1_city":"East Hartland","location_1_location":"339 South Road, Rte 179","location_1_state":"CT","phone1":"860-653-2038","website":"http://www.sweetwindfarm.net","zipcode":"06027"}
,{"business":"MICHAEL W  DZEN  JR","category":"Fruit","farmer_id":"1380","item":"Peaches","l":"0","location_1":{"type":"Point","coordinates":[-72.55745420999966,41.90460935900046]},"location_1_city":"BROAD BROOK","location_1_location":"33 NORTON RD","location_1_state":"CT","phone1":"860-386-0781","zipcode":"06016-9757"}
,{"business":"Wright's Orchard & Dried Flower Farm","category":"Fruit","farm_name":"Wright's Orchard & Dried Flower Farm","farmer_id":"9135","item":"Peaches","l":"36","location_1":{"type":"Point","coordinates":[-72.31161142799965,41.86535803200047]},"location_1_city":"Tolland","location_1_location":"271 South River Road","location_1_state":"CT","phone1":"860-872-1665","website":"http://www.wrightsorchard.com","zipcode":"06084"}
,{"business":"Nusie MCC & Levine,Jeffrey Halpine","category":"Fruit","farmer_id":"1958","item":"Peaches","l":"0","location_1":{"type":"Point","coordinates":[-72.24247797499964,41.70854745700046]},"location_1_city":"Lebanon","location_1_location":"100 Kingsley Rd","location_1_state":"CT","phone1":"860-456-1890","zipcode":"06249"}
,{"business":"Betsy's Stand","category":"Fruit","farm_name":"Betsy's Stand","farmer_id":"5889","item":"Peaches","l":"13","location_1":{"type":"Point","coordinates":[-71.81605963399966,41.72346904800048]},"location_1_city":"Sterling","location_1_location":"Rte 47","location_1_state":"CT","phone1":"860-564-1117","zipcode":"06377"}
,{"business":"Medlyn's Farm Market","category":"Fruit","farm_name":"Medlyn's Farm Market","farmer_id":"7613","item":"Peaches","l":"20","location_1":{"type":"Point","coordinates":[-72.73551107499964,41.269171161000486]},"location_1_city":"Stony Creek","location_1_location":"710 Leetes Island Road","location_1_state":"CT","phone1":"203-488-3578","zipcode":"06405"}
,{"business":"FAIRVIEW FARM","category":"Fruit","farm_name":"FAIRVIEW FARM","farmer_id":"6587","item":"Peaches","l":"13","location_1":{"type":"Point","coordinates":[-73.07776698999965,41.75445796600047]},"location_1_city":"Harwinton","location_1_location":"70 Delay Rd","location_1_state":"CT","phone1":"860-485-1753","zipcode":"06791"}
,{"business":"Chamard Vineyards","category":"Fruit","farm_name":"Chamard Vineyards","farmer_id":"6176","item":"Peaches","l":"17","location_1":{"type":"Point","coordinates":[-72.54297936499967,41.30192901100048]},"location_1_city":"Clinton","location_1_location":"115 Cow Hill Rd","location_1_state":"CT","phone1":"860-388-7302","website":"http://www.chamard.com","zipcode":"06413"}
,{"business":"Smith Farm of Avon LLC","category":"Fruit","farm_name":"Smith Farm of Avon LLC","farmer_id":"15057","item":"Peaches","l":"22","location_1":{"type":"Point","coordinates":[-72.86452579099966,41.76745786400045]},"location_1_city":"Avon","location_1_location":"841 West Avon Road","location_1_state":"CT","phone1":"860-673-4405","zipcode":"06001"}
,{"business":"Ekonk Hill Turkey Farm","category":"Fruit","farm_name":"Ekonk Hill Turkey Farm","farmer_id":"6539","item":"Peaches","l":"22","location_1":{"type":"Point","coordinates":[-71.85160571599965,41.67528472800046]},"location_1_city":"Sterling","location_1_location":"227 Ekonk Hill Road","location_1_state":"CT","phone1":"860-564-0248","website":"http://www.ekonkhillturkeyfarm.com","zipcode":"06377"}
,{"business":"Geofdebjon Acres","category":"Fruit","farm_name":"Geofdebjon Acres","farmer_id":"6776","item":"Peaches","l":"16","location_1":{"type":"Point","coordinates":[-73.44860572199963,41.68552584000048]},"location_1_city":"South Kent","location_1_location":"17 Spaulding Farm Lane","location_1_state":"CT","phone1":"860-927-3826","zipcode":"06785"}
,{"business":"Newgate Farms Enterprises LLC","category":"Fruit","farm_name":"Newgate Farms Enterprises LLC","farmer_id":"15594","item":"Peaches","l":"29","location_1":{"type":"Point","coordinates":[-72.70540523899967,41.8840141980005]},"location_1_city":"Windsor","location_1_location":"740 Prospect Hill Road","location_1_state":"CT","phone1":"860-653-4758","website":"http://www.newgatefarms.com","zipcode":"06095"}
,{"business":"Stevens Farm","category":"Fruit","farm_name":"Stevens Farm","farmer_id":"18248","item":"Peaches","l":"12","location_1":{"type":"Point","coordinates":[-71.82521253299967,41.83746244200046]},"location_1_city":"Dayville","location_1_location":"186 Slater Hill Road","location_1_state":"CT","phone1":"860-774-3006","zipcode":"06241"}
,{"business":"Litchfield Hills Nursery Inc","category":"Fruit","farm_name":"Litchfield Hills Nursery Inc","farmer_id":"7417","item":"Peaches","l":"28","location_1":{"type":"Point","coordinates":[-73.17582360499966,41.76766686800045]},"location_1_city":"Litchfield","location_1_location":"393 Torrington Rd, PO Box 910","location_1_state":"CT","phone1":"860-567-9374","zipcode":"06759"}
,{"business":"Westridge Farm","category":"Fruit","farm_name":"Westridge Farm","farmer_id":"16246","item":"Peaches","l":"14","location_1":{"type":"Point","coordinates":[-71.84457662899968,41.5001642040005]},"location_1_city":"North Stonington","location_1_location":"611 Wyassup Rd.","location_1_state":"CT","phone1":"860-599-2540","zipcode":"06359-1140"}
,{"business":"ROSE ORCHARDS","category":"Fruit","farm_name":"ROSE ORCHARDS","farmer_id":"8227","item":"Peaches","l":"13","location_1":{"type":"Point","coordinates":[-72.77077602999964,41.307310533000475]},"location_1_city":"North Branford","location_1_location":"33 Branford Road","location_1_state":"CT","phone1":"203-915-7536","zipcode":"06471"}
,{"business":"Staehly Farms","category":"Fruit","farm_name":"Staehly Farms","farmer_id":"8484","item":"Peaches","l":"13","location_1":{"type":"Point","coordinates":[-72.43363971299965,41.4533746620005]},"location_1_city":"East Haddam","location_1_location":"278 Town Street","location_1_state":"CT","phone1":"860-873-9774","website":"http://www.staehlys.com","zipcode":"06423"}
,{"business":"Country Farm I LLC","category":"Fruit","farm_name":"Country Farm I LLC","farmer_id":"16782","item":"Peaches","l":"18","location_1":{"type":"Point","coordinates":[-72.81522656599964,41.37898563900046]},"location_1_city":"Northford","location_1_location":"1036 Middletown Avenue","location_1_state":"CT","phone1":"203-239-5050","zipcode":"06472"}
,{"business":"West Green Farm, LLC","category":"Fruit","farm_name":"West Green Farm, LLC","farmer_id":"8972","item":"Peaches","l":"20","location_1":{"type":"Point","coordinates":[-72.21692497399965,41.638960005000456]},"location_1_city":"Lebanon","location_1_location":"119 West Town Street","location_1_state":"CT","phone1":"860-642-6745","website":"http://www.westgreenfarm.com","zipcode":"06249"}
,{"business":"James & June Dytko","category":"Fruit","farmer_id":"1374","item":"Peaches","l":"0","location_1":{"type":"Point","coordinates":[-73.13017365299964,41.40587278300046]},"location_1_city":"Oxford","location_1_location":"194 Moose Hill Rd","location_1_state":"CT","zipcode":"06483"}
,{"business":"The Hay House","category":"Fruit","farm_name":"The Hay House","farmer_id":"8679","item":"Peaches","l":"13","location_1":{"type":"Point","coordinates":[-72.39858307199967,41.303587663000485]},"location_1_city":"Old Saybrook","location_1_location":"155 Ingham Hill Road","location_1_state":"CT","phone1":"860-388-9587","website":"http://hayhouseonline.blogspot.com","zipcode":"06475-1109"}
,{"business":"Hard Rain Farm","category":"Fruit","farm_name":"Hard Rain Farm","farmer_id":"10102","item":"Peaches","l":"14","location_1":{"type":"Point","coordinates":[-72.93239979899965,41.77950381900047]},"location_1_city":"Burlington","location_1_location":"57 Spielman Highway, Rte. 4","location_1_state":"CT","phone1":"860-675-3941","zipcode":"06013"}
,{"business":"Nancy Dubin","category":"Fruit","farmer_id":"1333","item":"Peaches","l":"0","location_1":{"type":"Point","coordinates":[-72.28264997699966,41.66371332400047]},"location_1_city":"Lebanon","location_1_location":"407 Tobacco St","location_1_state":"CT","phone1":"860-423-3323","zipcode":"06249"}
,{"business":"Hindinger Farm LLC","category":"Fruit","farm_name":"Hindinger Farm LLC","farmer_id":"7063","item":"Peaches","l":"18","location_1":{"type":"Point","coordinates":[-72.94725386299967,41.37844176200048]},"location_1_city":"Hamden","location_1_location":"835 Dunbar Hill Road","location_1_state":"CT","phone1":"203-288-0700","website":"http://www.hindingersfarm.com","zipcode":"06514"}
,{"business":"Norton Bros. Fruit Farm, LLC","category":"Fruit","farm_name":"Norton Bros. Fruit Farm, LLC","farmer_id":"7812","item":"Peaches","l":"28","location_1":{"type":"Point","coordinates":[-72.88287933499964,41.50046840600049]},"location_1_city":"Cheshire","location_1_location":"466 Academy Road","location_1_state":"CT","phone1":"203-272-8418","website":"http://www.nortonbrothersfruitfarm.com","zipcode":"06410"}
,{"business":"Smigel Farm","category":"Fruit","farm_name":"Smigel Farm","farmer_id":"8412","item":"Peaches","l":"11","location_1":{"type":"Point","coordinates":[-72.69828609299964,41.602753006000455]},"location_1_city":"Cromwell","location_1_location":"97 Berlin Rd","location_1_state":"CT","phone1":"860-635-0823","zipcode":"06416"}
,{"business":"TONN'S ORCHARD","category":"Fruit","farm_name":"TONN'S ORCHARD","farmer_id":"8725","item":"Peaches","l":"14","location_1":{"type":"Point","coordinates":[-72.94895808799964,41.72331394800045]},"location_1_city":"Burlington","location_1_location":"418 Milford Street","location_1_state":"CT","phone1":"860-675-3707","zipcode":"06013"}
,{"business":"Averill Farm","category":"Fruit","farm_name":"Averill Farm","farmer_id":"5757","item":"Peaches","l":"12","location_1":{"type":"Point","coordinates":[-73.34064597499963,41.66372541300046]},"location_1_city":"Washington Depot","location_1_location":"250 Calhoun Street","location_1_state":"CT","phone1":"860-868-2777","website":"http://www.averillfarm.com","zipcode":"06794"}
,{"business":"Beckett Farms LLC","category":"Fruit","farm_name":"Beckett Farms LLC","farmer_id":"5840","item":"Peaches","l":"17","location_1":{"type":"Point","coordinates":[-72.59891561399962,41.67922188400047]},"location_1_city":"Glastonbury","location_1_location":"1269 Main Street","location_1_state":"CT","phone1":"860-659-0848","website":"http://www.beckettfarms.com","zipcode":"06033"}
,{"business":"Falls Creek Farm LLC","category":"Fruit","farm_name":"Falls Creek Farm LLC","farmer_id":"6599","item":"Peaches","l":"20","location_1":{"type":"Point","coordinates":[-71.81384802599968,41.69247612300046]},"location_1_city":"Oneco","location_1_location":"368 Bailey Road","location_1_state":"CT","phone1":"860-564-5554","website":"http://www.fallscreekfarm.com","zipcode":"06373"}
,{"business":"Studio Farm Products","category":"Fruit","farm_name":"Studio Farm Products","farmer_id":"8565","item":"Peaches","l":"20","location_1":{"type":"Point","coordinates":[-71.83798827599963,41.519882502000485]},"location_1_city":"Voluntown","location_1_location":"5 Sand Hill Road","location_1_state":"CT","phone1":"860-599-2530","website":"http://www.studiofarmproducts.com","zipcode":"06384-2308"}
,{"business":"Blue Jay Orchards","category":"Fruit","farm_name":"Blue Jay Orchards","farmer_id":"5941","item":"Peaches","l":"17","location_1":{"type":"Point","coordinates":[-73.37907032199968,41.3953169290005]},"location_1_city":"Bethel","location_1_location":"125 Plumtrees Road","location_1_state":"CT","phone1":"203-748-0119","website":"http://www.bluejayorchardsct.com","zipcode":"06801"}
,{"business":"Second Wind Farm","category":"Fruit","farm_name":"Second Wind Farm","farmer_id":"16567","item":"Peaches","l":"16","location_1":{"type":"Point","coordinates":[-73.12461718299966,41.650966936000486]},"location_1_city":"Watertown","location_1_location":"180 Apple Hill Drive","location_1_state":"CT","phone1":"860-747-7717","zipcode":"06795"}
,{"business":"Gardner Farms","category":"Fruit","farm_name":"Gardner Farms","farmer_id":"13396","item":"Peaches","l":"13","location_1":{"type":"Point","coordinates":[-72.03418229599964,41.9996829800005]},"location_1_city":"Woodstock","location_1_location":"109 Redhead Hill Road","location_1_state":"CT","phone1":"860-974-2471","zipcode":"06281-3025"}
,{"business":"Bushy Hill Orchard","category":"Fruit","farm_name":"Bushy Hill Orchard","farmer_id":"6071","item":"Peaches","l":"18","location_1":{"type":"Point","coordinates":[-72.81076493099965,41.957001309000475]},"location_1_city":"Granby","location_1_location":"29 Bushy Hill Road","location_1_state":"CT","phone1":"860-250-9291","website":"http://www.bushyhill.com","zipcode":"06035-2903"}
,{"business":"Morningside Farm","category":"Fruit","farm_name":"Morningside Farm","farmer_id":"3297","item":"Peaches","l":"16","location_1":{"type":"Point","coordinates":[-72.12723596699965,41.34748916800049]},"location_1_city":"Waterford","location_1_location":"75 Clark Lane","location_1_state":"CT","phone1":"860-443-4808","zipcode":"06385"}
,{"business":"Hollister's Greenhouse","category":"Fruit","farm_name":"Hollister's Greenhouse","farmer_id":"7089","item":"Peaches","l":"22","location_1":{"type":"Point","coordinates":[-72.82285467099967,41.998921321000466]},"location_1_city":"North Granby","location_1_location":"11 Loomis St","location_1_state":"CT","phone1":"860-205-6971","zipcode":"06060"}
,{"business":"Dondero Orchards, LLC","category":"Fruit","farm_name":"Dondero Orchards, LLC","farmer_id":"6449","item":"Peaches","l":"21","location_1":{"type":"Point","coordinates":[-72.56263587899963,41.656721794000475]},"location_1_city":"South Glastonbury","location_1_location":"529 Woodland Street","location_1_state":"CT","phone1":"860-659-0294","website":"http://www.donderoorchards.com","zipcode":"06073"}
,{"business":"Colton's Corner Farm","category":"Fruit","farm_name":"Colton's Corner Farm","farmer_id":"6260","item":"Peaches","l":"20","location_1":{"type":"Point","coordinates":[-72.87305037099964,41.511287180000465]},"location_1_city":"Cheshire","location_1_location":"636 Reservoir Rd","location_1_state":"CT","phone1":"203-272-2527","zipcode":"06410"}
,{"business":"Holmberg Orchards and Winery","category":"Fruit","farm_name":"Holmberg Orchards and Winery","farmer_id":"7096","item":"Peaches","l":"28","location_1":{"type":"Point","coordinates":[-72.05713229399964,41.46850295700045]},"location_1_city":"Gales Ferry","location_1_location":"12 Orchard Drive","location_1_state":"CT","phone1":"860-464-7305","website":"http://www.holmbergorchards.com","zipcode":"06335"}
,{"business":"Grace Farm","category":"Fruit","farm_name":"Grace Farm","farmer_id":"16832","item":"Peaches","l":"10","location_1":{"type":"Point","coordinates":[-72.84562375999963,41.62531353200046]},"location_1_city":"Southington","location_1_location":"747 Flanders Road","location_1_state":"CT","phone1":"860-841-8898","zipcode":"06489"}
,{"business":"Chester Jr & Theresa Clifford Dunlop","category":"Fruit","farmer_id":"1357","item":"Peaches","l":"0","location_1":{"type":"Point","coordinates":[-73.00909944199964,41.776678966000475]},"location_1_city":"Burlington","location_1_location":"522 Spielman Highway","location_1_state":"CT","phone1":"860-673-9271","zipcode":"06013"}
,{"business":"Fieldstone Farm","category":"Fruit","farm_name":"Fieldstone Farm","farmer_id":"14934","item":"Peaches","l":"15","location_1":{"type":"Point","coordinates":[-73.45091500799964,41.70641544500046]},"location_1_city":"South Kent","location_1_location":"71 Jennings Road","location_1_state":"CT","phone1":"860-799-8310","zipcode":"06785"}
,{"business":"Masuk Nursery","category":"Fruit","farm_name":"Masuk Nursery","farmer_id":"15613","item":"Peaches","l":"13","location_1":{"type":"Point","coordinates":[-72.60645316299963,41.546547940000494]},"location_1_city":"Middletown","location_1_location":"130 Cedar Lane","location_1_state":"CT","phone1":"860-346-1277","zipcode":"06457"}
,{"business":"ETHIER FARM","category":"Fruit","farm_name":"ETHIER FARM","farmer_id":"9548","item":"Peaches","l":"11","location_1":{"type":"Point","coordinates":[-72.56266042099963,41.65665599200048]},"location_1_city":"South Glastonbury","location_1_location":"533 Woodland Street","location_1_state":"CT","phone1":"860-657-9615","zipcode":"06073"}
,{"business":"Ronald & Judith Bergeron","category":"Fruit","farmer_id":"365","item":"Peaches","l":"0","location_1":{"type":"Point","coordinates":[-72.28593282699967,41.59670698400049]},"location_1_city":"Lebanon","location_1_location":"338 Lebanon Ave","location_1_state":"CT","phone1":"860-537-2265","zipcode":"06249"}
,{"business":"Groton Family Farm","category":"Fruit","farm_name":"Groton Family Farm","farmer_id":"9442","item":"Peaches","l":"18","location_1":{"type":"Point","coordinates":[-72.03170258599965,41.34602807400046]},"location_1_city":"Groton","location_1_location":"70 Fort Hill Road","location_1_state":"CT","phone1":"860-235-1011","suite":"Rte. 1","website":"http://www.grotonfamilyfarm.com","zipcode":"06340"}
,{"business":"Country Farm Market","category":"Fruit","farm_name":"Country Farm Market","farmer_id":"6293","item":"Peaches","l":"19","location_1":{"type":"Point","coordinates":[-72.81430704499962,41.37959519600048]},"location_1_city":"Northford","location_1_location":"1038 Middletown Ave","location_1_state":"CT","phone1":"203-484-2846","zipcode":"06472"}
,{"business":"Little Bit of Heaven","category":"Fruit","farm_name":"Little Bit of Heaven","farmer_id":"1022","item":"Peaches","l":"20","location_1":{"type":"Point","coordinates":[-71.94297724499967,42.02308759100049]},"location_1_city":"Quinebaug","location_1_location":"655 Fabyan Road","location_1_state":"CT","phone1":"860-315-7498","zipcode":"06262"}
,{"business":"Maywood Farm/G.L. Bollard Corp.","category":"Fruit","farm_name":"Maywood Farm/G.L. Bollard Corp.","farmer_id":"3107","item":"Peaches","l":"31","location_1":{"type":"Point","coordinates":[-73.34392587399964,41.489026400000455]},"location_1_city":"Bridgewater","location_1_location":"52 Cooper Rd","location_1_state":"CT","phone1":"860-354-4104","zipcode":"06752"}
,{"business":"Guy's Eco-Garden","category":"Fruit","farm_name":"Guy's Eco-Garden","farmer_id":"6897","item":"Peaches","l":"16","location_1":{"type":"Point","coordinates":[-73.15001513299967,41.3336836790005]},"location_1_city":"Shelton","location_1_location":"276 Leavenworth Road","location_1_state":"CT","phone1":"203-929-3080","zipcode":"06484-1811"}
,{"business":"Draghi Farm","category":"Fruit","farm_name":"Draghi Farm","farmer_id":"7969","item":"Peaches","l":"11","location_1":{"type":"Point","coordinates":[-72.60283962199964,41.86839664200045]},"location_1_city":"East Windsor","location_1_location":"379 Scantic Road","location_1_state":"CT","phone1":"860-282-9063","zipcode":"06088"}
,{"business":"Arbutus Farm","category":"Fruit","farm_name":"Arbutus Farm","farmer_id":"2844","item":"Peaches","l":"12","location_1":{"type":"Point","coordinates":[-73.25391622399962,41.75078497800047]},"location_1_city":"Litchfield","location_1_location":"67 Litwin Rd","location_1_state":"CT","phone1":"860-567-5980","zipcode":"06759"}
,{"business":"Willow Spring Farm","category":"Fruit","farm_name":"Willow Spring Farm","farmer_id":"9042","item":"Peaches","l":"18","location_1":{"type":"Point","coordinates":[-72.00095478099962,41.37552103900049]},"location_1_city":"Mystic","location_1_location":"1030 Noank Ledyard Road","location_1_state":"CT","phone1":"860-536-3083","zipcode":"06355"}
,{"business":"Silverman's Farm","category":"Fruit","farm_name":"Silverman's Farm","farmer_id":"8399","item":"Peaches","l":"16","location_1":{"type":"Point","coordinates":[-73.27861439299966,41.24929977700049]},"location_1_city":"Easton","location_1_location":"451 Sport Hill Road","location_1_state":"CT","phone1":"203-261-3306","website":"http://www.silvermansfarm.com","zipcode":"06612"}
,{"business":"Hickory Hill Orchards","category":"Fruit","farm_name":"Hickory Hill Orchards","farmer_id":"6998","item":"Peaches","l":"21","location_1":{"type":"Point","coordinates":[-72.87585041699964,41.50643722600046]},"location_1_city":"Cheshire","location_1_location":"363 South Meriden Road","location_1_state":"CT","phone1":"203-272-6593","website":"http://www.hickoryhillorchards.com/pick.html","zipcode":"06410"}
,{"business":"Paul & Donna Barten","category":"Fruit","farmer_id":"273","item":"Peaches","l":"0","location_1":{"type":"Point","coordinates":[-72.68914504199967,42.028180061000455]},"location_1_city":"West Suffield","location_1_location":"1399 North Grand St","location_1_state":"CT","phone1":"860-668-6006","zipcode":"06093"}
,{"business":"Hugh Schoelzel","category":"Fruit","farmer_id":"4343","item":"Peaches","l":"0","location_1":{"type":"Point","coordinates":[-73.16890452599966,41.72378955300047]},"location_1_city":"Litchfield","location_1_location":"194 Chestnut Hill R","location_1_state":"CT","phone1":"860-567-8518","zipcode":"06759"}
,{"business":"Roby's Organic","category":"Fruit","farm_name":"Roby's Organic","farmer_id":"8186","item":"Peaches","l":"14","location_1":{"type":"Point","coordinates":[-72.76088495499965,41.59438744100049]},"location_1_city":"Berlin","location_1_location":"1667 Orchard Road","location_1_state":"CT","phone1":"860-828-5548","zipcode":"06037"}
,{"business":"Woodstock Orchards LLC","category":"Fruit","farm_name":"Woodstock Orchards LLC","farmer_id":"9118","item":"Peaches","l":"22","location_1":{"type":"Point","coordinates":[-71.97266081799967,41.94517544100046]},"location_1_city":"Woodstock","location_1_location":"494 Rte. 169","location_1_state":"CT","phone1":"860-928-2225","website":"http://www.woodstockorchardslls.com","zipcode":"06281-0113"}
,{"business":"HAYWARD FARM","category":"Fruit","farm_name":"HAYWARD FARM","farmer_id":"6976","item":"Peaches","l":"12","location_1":{"type":"Point","coordinates":[-73.01690353799967,41.79919401000046]},"location_1_city":"New Hartford","location_1_location":"238 Hayward Road","location_1_state":"CT","phone1":"860-489-9502","zipcode":"06057"}
,{"business":"Beardsley's Cider Mill & Orchard, LLC","category":"Fruit","farm_name":"Beardsley's Cider Mill & Orchard, LLC","farmer_id":"5828","item":"Peaches","l":"37","location_1":{"type":"Point","coordinates":[-73.15013273099964,41.33370370600045]},"location_1_city":"Shelton","location_1_location":"278 Leavenworth Rd (Rte. 110)","location_1_state":"CT","phone1":"203-926-1098","website":"http://www.beardsleyscidermill.com","zipcode":"06484"}
,{"business":"Andrea P Lippincott","category":"Fruit","farmer_id":"2839","item":"Peaches","l":"0","location_1":{"type":"Point","coordinates":[-73.14842241099967,41.80255713000048]},"location_1_city":"Torrington","location_1_location":"613 Highland Ave","location_1_state":"CT","phone1":"860-482-6507","zipcode":"06790"}
,{"business":"Hard Knock Farm","category":"Fruit","farm_name":"Hard Knock Farm","farmer_id":"16751","item":"Peaches","l":"15","location_1":{"type":"Point","coordinates":[-72.60135729999968,41.732952785000464]},"location_1_city":"East Hartford","location_1_location":"69 O'Connell Drive","location_1_state":"CT","phone1":"860-263-7472","zipcode":"06118"}
,{"business":"Frank & Catherine Mnich, Jr.","category":"Fruit","farmer_id":"3322","item":"Peaches","l":"0","location_1":{"type":"Point","coordinates":[-72.66275202599962,42.02378641100046]},"location_1_city":"Suffield","location_1_location":"745 Halladay Ave","location_1_state":"CT","phone1":"860-668-2518","zipcode":"06078"}
,{"category":"Fruit","farmer_id":"9271","item":"Peaches","location_1":{"type":"Point","coordinates":[-72.61497150699967,41.664509876000466]},"location_1_city":"South Glastonbury","location_1_location":"179 TRYON ST","location_1_state":"CT","phone1":"860-659-1894","zipcode":"06073-2023"}
,{"business":"Joe's Farm","category":"Fruit","farm_name":"Joe's Farm","farmer_id":"15895","item":"Peaches","l":"10","location_1":{"type":"Point","coordinates":[-73.06317851599965,41.4399853540005]},"location_1_city":"Beacon Falls","location_1_location":"343 Lopus Rd","location_1_state":"CT","phone1":"203-723-0070","zipcode":"06403"}
,{"business":"Stone Gardens","category":"Fruit","farm_name":"Stone Gardens","farmer_id":"8525","item":"Peaches","l":"13","location_1":{"type":"Point","coordinates":[-73.15631120099965,41.3188227010005]},"location_1_city":"Shelton","location_1_location":"83 Sawmill City Rd","location_1_state":"CT","phone1":"203-929-2003","website":"http://www.stonegardensfarm.com","zipcode":"06484"}
,{"business":"Benjamin Paletsky","category":"Fruit","farmer_id":"3687","item":"Peaches","l":"0","location_1":{"type":"Point","coordinates":[-73.21195782499967,41.68218715000046]},"location_1_city":"Morris","location_1_state":"CT","phone1":"860-567-9847","zipcode":"06763"}
,{"business":"La Van Norwood","category":"Fruit","farmer_id":"3546","item":"Peaches","l":"0","location_1":{"type":"Point","coordinates":[-72.24373857199964,41.53256752100049]},"location_1_city":"Salem","location_1_location":"80 Buckley Rd","location_1_state":"CT","zipcode":"06420"}
,{"business":"Easy Pickin's Orchard","category":"Fruit","farm_name":"Easy Pickin's Orchard","farmer_id":"6519","item":"Peaches","l":"21","location_1":{"type":"Point","coordinates":[-72.50410817099964,41.9774439410005]},"location_1_city":"Enfield","location_1_location":"46 Bailey Road","location_1_state":"CT","phone1":"860-763-3276","website":"http://www.easypickinsorchard.com","zipcode":"06082"}]